<?xml version='1.0' encoding='UTF-8'?>
<kml xmlns='http://www.opengis.net/kml/2.2'>
	<Document>
		<name> StoJön</name>
		<description>
			<![CDATA[ ]]>
		</description>
		<Folder>
			<name> stationer</name>
			<Placemark>
				<name> Stocholm</name>
				<styleUrl> #icon-paddle-red</styleUrl>
				<Point>
					<coordinates>
						18.0563736,59.3314383,0.0
					</coordinates>
				</Point>
				<description>
					<![CDATA[ <div lang="sv"><b>?[name]</b></div> <div lang="fi"><b>Tukholma</b></div> <div
					 lang="en"><b>?[name]</b></div> ]]>
				</description>
			</Placemark>
			<Placemark>
				<name> Billsta</name>
				<styleUrl> #icon-paddle-grn-stars</styleUrl>
				<Point>
					<coordinates>
						17.5417328,59.075153900000004,0.0
					</coordinates>
				</Point>
<description><![CDATA[<div lang="sv"><b>?[name]</b></div><div lang="fi"><b>?[name]</b></div><div lang="en"><b>?[name]</b></div>]]></description>
			</Placemark>
			<Placemark>
				<name> Vagnshärad</name>
				<styleUrl> #icon-paddle-red</styleUrl>
				<Point>
					<coordinates>
						17.4976158,58.945758000000005,0.0
					</coordinates>
				</Point>
<description><![CDATA[<div lang="sv"><b>?[name]</b></div><div lang="fi"><b>?[name]</b></div><div lang="en"><b>?[name]</b></div>]]></description>
			</Placemark>
			<Placemark>
				<name> Nyköping</name>
				<styleUrl> #icon-paddle-red</styleUrl>
				<Point>
					<coordinates>
						16.9949913,58.7560041,0.0
					</coordinates>
				</Point>
<description><![CDATA[<div lang="sv"><b>?[name]</b></div><div lang="fi"><b>?[name]</b></div><div lang="en"><b>?[name]</b></div>]]></description>
			</Placemark>
			<Placemark>
				<name> Norrköping</name>
				<styleUrl> #icon-paddle-red</styleUrl>
				<Point>
					<coordinates>
						16.1833763,58.5965288,0.0
					</coordinates>
				</Point>
<description><![CDATA[<div lang="sv"><b>?[name]</b></div><div lang="fi"><b>?[name]</b></div><div lang="en"><b>?[name]</b></div>]]></description>
			</Placemark>
			<Placemark>
				<name> Linköping</name>
				<styleUrl> #icon-paddle-red</styleUrl>
				<Point>
					<coordinates>
						15.626163499999999,58.4162795,0.0
					</coordinates>
				</Point>
<description><![CDATA[<div lang="sv"><b>?[name]</b></div><div lang="fi"><b>?[name]</b></div><div lang="en"><b>?[name]</b></div>]]></description>
			</Placemark>
			<Placemark>
				<name> Tranås</name>
				<styleUrl> #icon-paddle-red</styleUrl>
				<Point>
					<coordinates>
						14.975051900000002,58.0378702,0.0
					</coordinates>
				</Point>
<description><![CDATA[<div lang="sv"><b>?[name]</b></div><div lang="fi"><b>?[name]</b></div><div lang="en"><b>?[name]</b></div>]]></description>
			</Placemark>
			<Placemark>
				<name> Skavsta flygplats</name>
				<styleUrl> #icon-paddle-blue</styleUrl>
				<Point>
					<coordinates>
						16.9253826,58.7836394,0.0
					</coordinates>
				</Point>
				<description>
					<![CDATA[ <div lang="sv"><b>Skavsta flygplats</b></div> <div lang="fi"><b>Skavstan
					 lentoasema</b></div> <div lang="en"><b>Skavsta airport</b></div> ]]>
				</description>
			</Placemark>
			<Placemark>
				<name> Gripenberg</name>
				<styleUrl> #icon-paddle-grn-stars</styleUrl>
				<Point>
					<coordinates>
						14.853730200000001,57.9911323,0.0
					</coordinates>
				</Point>
<description><![CDATA[<div lang="sv"><b>?[name]</b></div><div lang="fi"><b>?[name]</b></div><div lang="en"><b>?[name]</b></div>]]></description>
			</Placemark>
		</Folder>
<Style id='icon-paddle-red'><IconStyle><scale> 1.1</scale><Icon><href> http://maps.google.com/mapfiles/kml/paddle/red-blank.png</href></Icon></IconStyle></Style>
<Style id='icon-paddle-blue'><IconStyle><scale> 1.1</scale><Icon><href> http://maps.google.com/mapfiles/kml/paddle/blu-blank.png</href></Icon></IconStyle></Style>
<Style id='icon-paddle-grn-stars'><IconStyle><scale> 1.1</scale><Icon><href> http://maps.google.com/mapfiles/kml/paddle/grn-stars.png</href></Icon></IconStyle></Style>
	</Document>
</kml>
